{"type":"FeatureCollection","totalFeatures":62,"features":[{"type":"Feature","id":"nyu_2451_34494.1","geometry":{"type":"Point","coordinates":[-73.9110103877187,40.843489847396775]},"geometry_name":"geom","properties":{"id":"317000001H1178","name":"BRONX-LEBANON HOSPITAL CENTER - CONCOURSE DIVISION","address":"1650 Grand Concourse","zip":"10457","factype":3102,"facname":"Hospital","capacity":415,"capname":"Beds","bcode":"36005","xcoord":1008872,"ycoord":246596,"bbox":[-73.9110103877187,40.843489847396775,-73.9110103877187,40.843489847396775]}},{"type":"Feature","id":"nyu_2451_34494.2","geometry":{"type":"Point","coordinates":[-73.90317782803044,40.83142876488173]},"geometry_name":"geom","properties":{"id":"317000001H1164","name":"BRONX-LEBANON HOSPITAL CENTER - FULTON DIVISION","address":"1276 Fulton Ave","zip":"10456","factype":3102,"facname":"Hospital","capacity":164,"capname":"Beds","bcode":"36005","xcoord":1011044,"ycoord":242204,"bbox":[-73.90317782803044,40.83142876488173,-73.90317782803044,40.83142876488173]}},{"type":"Feature","id":"nyu_2451_34494.3","geometry":{"type":"Point","coordinates":[-73.8436556129915,40.84805952429601]},"geometry_name":"geom","properties":{"id":"317000011H1175","name":"CALVARY HOSPITAL INC","address":"1740-70 Eastchester Rd","zip":"10461","factype":3102,"facname":"Hospital","capacity":225,"capname":"Beds","bcode":"36005","xcoord":1027505,"ycoord":248287,"bbox":[-73.8436556129915,40.84805952429601,-73.8436556129915,40.84805952429601]}},{"type":"Feature","id":"nyu_2451_34494.4","geometry":{"type":"Point","coordinates":[-73.84531138280728,40.855686553962265]},"geometry_name":"geom","properties":{"id":"317000002H1165","name":"JACOBI MEDICAL CENTER","address":"1400 Pelham Pkwy","zip":"10461","factype":3102,"facname":"Hospital","capacity":457,"capname":"Beds","bcode":"36005","xcoord":1027042,"ycoord":251065,"bbox":[-73.84531138280728,40.855686553962265,-73.84531138280728,40.855686553962265]}},{"type":"Feature","id":"nyu_2451_34494.5","geometry":{"type":"Point","coordinates":[-73.92447845294292,40.81675769880816]},"geometry_name":"geom","properties":{"id":"317000008H1172","name":"LINCOLN MEDICAL & MENTAL HEALTH CENTER","address":"234 E 149 St","zip":"10451","factype":3102,"facname":"Hospital","capacity":362,"capname":"Beds","bcode":"36005","xcoord":1005154,"ycoord":236853,"bbox":[-73.92447845294292,40.81675769880816,-73.92447845294292,40.81675769880816]}},{"type":"Feature","id":"nyu_2451_34494.6","geometry":{"type":"Point","coordinates":[-73.8461093213621,40.849849629229034]},"geometry_name":"geom","properties":{"id":"317000006H3058","name":"MONTEFIORE MED CENTER - JACK D WEILER HOSP OF A EINSTEIN COLLEGE DIV","address":"1825 Eastchester Rd","zip":"10461","factype":3102,"facname":"Hospital","capacity":424,"capname":"Beds","bcode":"36005","xcoord":1026825,"ycoord":248938,"bbox":[-73.8461093213621,40.849849629229034,-73.8461093213621,40.849849629229034]}},{"type":"Feature","id":"nyu_2451_34494.7","geometry":{"type":"Point","coordinates":[-73.87994733604533,40.88082805661018]},"geometry_name":"geom","properties":{"id":"317000006H1169","name":"MONTEFIORE MEDICAL CENTER - HENRY & LUCY MOSES DIV","address":"111 E 210 St","zip":"10467","factype":3102,"facname":"Hospital","capacity":779,"capname":"Beds","bcode":"36005","xcoord":1017448,"ycoord":260210,"bbox":[-73.87994733604533,40.88082805661018,-73.87994733604533,40.88082805661018]}},{"type":"Feature","id":"nyu_2451_34494.8","geometry":{"type":"Point","coordinates":[-73.8484434844751,40.840707344128376]},"geometry_name":"geom","properties":{"id":"317000006H1185","name":"MONTEFIORE MEDICAL CENTER - MONTEFIORE WESTCHESTER SQUARE","address":"2475 St Raymond Ave","zip":"10461","factype":3102,"facname":"Hospital","capacity":null,"capname":"NA","bcode":"36005","xcoord":1026185,"ycoord":245606,"bbox":[-73.8484434844751,40.840707344128376,-73.8484434844751,40.840707344128376]}},{"type":"Feature","id":"nyu_2451_34494.9","geometry":{"type":"Point","coordinates":[-73.86122475983386,40.89351771876334]},"geometry_name":"geom","properties":{"id":"317000006H1168","name":"MONTEFIORE MEDICAL CENTER-WAKEFIELD HOSPITAL","address":"600 E 233 St","zip":"10466","factype":3102,"facname":"Hospital","capacity":309,"capname":"Beds","bcode":"36005","xcoord":1022618,"ycoord":264841,"bbox":[-73.86122475983386,40.89351771876334,-73.86122475983386,40.89351771876334]}},{"type":"Feature","id":"nyu_2451_34494.10","geometry":{"type":"Point","coordinates":[-73.88108707078342,40.88048615007647]},"geometry_name":"geom","properties":{"id":"317000024H1186","name":"NORTH CENTRAL BRONX HOSPITAL","address":"3424 Kossuth Ave","zip":"10467","factype":3102,"facname":"Hospital","capacity":213,"capname":"Beds","bcode":"36005","xcoord":1017133,"ycoord":260085,"bbox":[-73.88108707078342,40.88048615007647,-73.88108707078342,40.88048615007647]}},{"type":"Feature","id":"nyu_2451_34494.11","geometry":{"type":"Point","coordinates":[-73.89037489167947,40.853377729168415]},"geometry_name":"geom","properties":{"id":"317000014H1176","name":"SBH HEALTH SYSTEM","address":"4422 Third Ave","zip":"10457","factype":3102,"facname":"Hospital","capacity":422,"capname":"Beds","bcode":"36005","xcoord":1014577,"ycoord":250205,"bbox":[-73.89037489167947,40.853377729168415,-73.89037489167947,40.853377729168415]}},{"type":"Feature","id":"nyu_2451_34494.12","geometry":{"type":"Point","coordinates":[-73.9123791741448,40.65491846463234]},"geometry_name":"geom","properties":{"id":"317001002H1286","name":"BROOKDALE HOSPITAL MEDICAL CENTER","address":"1 Brookdale Plz","zip":"11212","factype":3102,"facname":"Hospital","capacity":530,"capname":"Beds","bcode":"36047","xcoord":1008562,"ycoord":177893,"bbox":[-73.9123791741448,40.65491846463234,-73.9123791741448,40.65491846463234]}},{"type":"Feature","id":"nyu_2451_34494.13","geometry":{"type":"Point","coordinates":[-73.977931631767,40.69057965481234]},"geometry_name":"geom","properties":{"id":"317001003H1288","name":"BROOKLYN HOSPITAL CENTER - DOWNTOWN CAMPUS","address":"121 Dekalb Ave","zip":"11217","factype":3102,"facname":"Hospital","capacity":464,"capname":"Beds","bcode":"36047","xcoord":990370,"ycoord":190874,"bbox":[-73.977931631767,40.69057965481234,-73.977931631767,40.69057965481234]}},{"type":"Feature","id":"nyu_2451_34494.14","geometry":{"type":"Point","coordinates":[-73.96486850038322,40.58564597050788]},"geometry_name":"geom","properties":{"id":"317001009H1294","name":"CONEY ISLAND HOSPITAL","address":"2601 Ocean Pkwy","zip":"11235","factype":3102,"facname":"Hospital","capacity":371,"capname":"Beds","bcode":"36047","xcoord":994008,"ycoord":152645,"bbox":[-73.96486850038322,40.58564597050788,-73.96486850038322,40.58564597050788]}},{"type":"Feature","id":"nyu_2451_34494.15","geometry":{"type":"Point","coordinates":[-73.93759250176674,40.678430210534266]},"geometry_name":"geom","properties":{"id":"317001046H1309","name":"INTERFAITH MEDICAL CENTER","address":"1545 Atlantic Ave","zip":"11213","factype":3102,"facname":"Hospital","capacity":287,"capname":"Beds","bcode":"36047","xcoord":1001560,"ycoord":186453,"bbox":[-73.93759250176674,40.678430210534266,-73.93759250176674,40.678430210534266]}},{"type":"Feature","id":"nyu_2451_34494.16","geometry":{"type":"Point","coordinates":[-73.94383353874255,40.65668655138318]},"geometry_name":"geom","properties":{"id":"317001016H1301","name":"KINGS COUNTY HOSPITAL CENTER","address":"451 Clarkson Ave","zip":"11203","factype":3102,"facname":"Hospital","capacity":639,"capname":"Beds","bcode":"36047","xcoord":999834,"ycoord":178530,"bbox":[-73.94383353874255,40.65668655138318,-73.94383353874255,40.65668655138318]}},{"type":"Feature","id":"nyu_2451_34494.17","geometry":{"type":"Point","coordinates":[-73.93380403563673,40.659574215904634]},"geometry_name":"geom","properties":{"id":"317001033H1315","name":"KINGSBROOK JEWISH MEDICAL CENTER","address":"585 Schenectady Ave","zip":"11203","factype":3102,"facname":"Hospital","capacity":318,"capname":"Beds","bcode":"36047","xcoord":1002616,"ycoord":179584,"bbox":[-73.93380403563673,40.659574215904634,-73.93380403563673,40.659574215904634]}},{"type":"Feature","id":"nyu_2451_34494.18","geometry":{"type":"Point","coordinates":[-74.02122142087823,40.64667161679273]},"geometry_name":"geom","properties":{"id":"317001019H1304","name":"LUTHERAN MEDICAL CENTER","address":"150 55 St","zip":"11220","factype":3102,"facname":"Hospital","capacity":450,"capname":"Beds","bcode":"36047","xcoord":978361,"ycoord":174877,"bbox":[-74.02122142087823,40.64667161679273,-74.02122142087823,40.64667161679273]}},{"type":"Feature","id":"nyu_2451_34494.19","geometry":{"type":"Point","coordinates":[-73.99870645745955,40.639506933802544]},"geometry_name":"geom","properties":{"id":"317001020H1305","name":"MAIMONIDES MEDICAL CENTER","address":"4802 Tenth Ave","zip":"11219","factype":3102,"facname":"Hospital","capacity":711,"capname":"Beds","bcode":"36047","xcoord":984609,"ycoord":172266,"bbox":[-73.99870645745955,40.639506933802544,-73.99870645745955,40.639506933802544]}},{"type":"Feature","id":"nyu_2451_34494.20","geometry":{"type":"Point","coordinates":[-73.94297936911907,40.61873121403779]},"geometry_name":"geom","properties":{"id":"317002002H1324","name":"MOUNT SINAI BETH ISRAEL BROOKLYN","address":"3201 Kings Highway","zip":"11234","factype":3102,"facname":"Hospital","capacity":212,"capname":"Beds","bcode":"36047","xcoord":1000080,"ycoord":164702,"bbox":[-73.94297936911907,40.61873121403779,-73.94297936911907,40.61873121403779]}},{"type":"Feature","id":"nyu_2451_34494.21","geometry":{"type":"Point","coordinates":[-73.9484978425456,40.613913961739605]},"geometry_name":"geom","properties":{"id":"317001008H1293","name":"NEW YORK COMMUNITY HOSPITAL OF BROOKLYN, INC","address":"2525 Kings Highway","zip":"11229","factype":3102,"facname":"Hospital","capacity":134,"capname":"Beds","bcode":"36047","xcoord":998549,"ycoord":162946,"bbox":[-73.9484978425456,40.613913961739605,-73.9484978425456,40.613913961739605]}},{"type":"Feature","id":"nyu_2451_34494.22","geometry":{"type":"Point","coordinates":[-73.97913592381343,40.66782845166707]},"geometry_name":"geom","properties":{"id":"317001021H1306","name":"NEW YORK METHODIST HOSPITAL","address":"506 Sixth St","zip":"11215","factype":3102,"facname":"Hospital","capacity":591,"capname":"Beds","bcode":"36047","xcoord":990038,"ycoord":182585,"bbox":[-73.97913592381343,40.66782845166707,-73.97913592381343,40.66782845166707]}},{"type":"Feature","id":"nyu_2451_34494.23","geometry":{"type":"Point","coordinates":[-73.997432591171,40.690002595723854]},"geometry_name":"geom","properties":{"id":"317002053H9753","name":"NYULMC - COBBLE HILL","address":"83 Amity St","zip":"11201","factype":3102,"facname":"Hospital","capacity":null,"capname":"NA","bcode":"36047","xcoord":984962,"ycoord":190663,"bbox":[-73.997432591171,40.690002595723854,-73.997432591171,40.690002595723854]}},{"type":"Feature","id":"nyu_2451_34494.24","geometry":{"type":"Point","coordinates":[-73.99725588378374,40.690433520493904]},"geometry_name":"geom","properties":{"id":"317001037H1302","name":"SUNY DOWNSTATE MEDICAL CENTER AT LICH","address":"339 Hicks St","zip":"11201","factype":3102,"facname":"Hospital","capacity":506,"capname":"Beds","bcode":"36047","xcoord":985011,"ycoord":190820,"bbox":[-73.99725588378374,40.690433520493904,-73.99725588378374,40.690433520493904]}},{"type":"Feature","id":"nyu_2451_34494.25","geometry":{"type":"Point","coordinates":[-73.94518999648369,40.65508974287461]},"geometry_name":"geom","properties":{"id":"317001037H1320","name":"UNIVERSITY HOSPITAL OF BROOKLYN","address":"445 Lenox Rd","zip":"11203","factype":3102,"facname":"Hospital","capacity":376,"capname":"Beds","bcode":"36047","xcoord":999458,"ycoord":177948,"bbox":[-73.94518999648369,40.65508974287461,-73.94518999648369,40.65508974287461]}},{"type":"Feature","id":"nyu_2451_34494.26","geometry":{"type":"Point","coordinates":[-73.9427660419906,40.699488036608756]},"geometry_name":"geom","properties":{"id":"317001045H1692","name":"WOODHULL MEDICAL & MENTAL HEALTH CENTER","address":"760 Broadway","zip":"11206","factype":3102,"facname":"Hospital","capacity":388,"capname":"Beds","bcode":"36047","xcoord":1000120,"ycoord":194124,"bbox":[-73.9427660419906,40.699488036608756,-73.9427660419906,40.699488036608756]}},{"type":"Feature","id":"nyu_2451_34494.27","geometry":{"type":"Point","coordinates":[-73.9175621182065,40.70420197722315]},"geometry_name":"geom","properties":{"id":"317001035H1318","name":"WYCKOFF HEIGHTS MEDICAL CENTER","address":"374 Stockholm St","zip":"11237","factype":3102,"facname":"Hospital","capacity":324,"capname":"Beds","bcode":"36047","xcoord":1007107,"ycoord":195847,"bbox":[-73.9175621182065,40.70420197722315,-73.9175621182065,40.70420197722315]}},{"type":"Feature","id":"nyu_2451_34494.28","geometry":{"type":"Point","coordinates":[-73.9753427823785,40.73874694182288]},"geometry_name":"geom","properties":{"id":"317002001H1438","name":"BELLEVUE HOSPITAL CENTER","address":"462 First Ave","zip":"10016","factype":3102,"facname":"Hospital","capacity":912,"capname":"Beds","bcode":"36061","xcoord":991083,"ycoord":208423,"bbox":[-73.9753427823785,40.73874694182288,-73.9753427823785,40.73874694182288]}},{"type":"Feature","id":"nyu_2451_34494.29","geometry":{"type":"Point","coordinates":[-73.95260272039621,40.757607231153166]},"geometry_name":"geom","properties":{"id":"317002050H1487","name":"COLER-GOLDWATER SPECIALTY HOSPITAL & NURSING FACILITY - COLER HOSPITAL SITE","address":"Roosevelt Island","zip":"10044","factype":3102,"facname":"Hospital","capacity":210,"capname":"Beds","bcode":"36061","xcoord":997381,"ycoord":215297,"bbox":[-73.95260272039621,40.757607231153166,-73.95260272039621,40.757607231153166]}},{"type":"Feature","id":"nyu_2451_34494.30","geometry":{"type":"Point","coordinates":[-73.93976651076436,40.81412353275155]},"geometry_name":"geom","properties":{"id":"317002009H1445","name":"HARLEM HOSPITAL CENTER","address":"506 Lenox Ave","zip":"10037","factype":3102,"facname":"Hospital","capacity":282,"capname":"Beds","bcode":"36061","xcoord":1000923,"ycoord":235890,"bbox":[-73.93976651076436,40.81412353275155,-73.93976651076436,40.81412353275155]}},{"type":"Feature","id":"nyu_2451_34494.31","geometry":{"type":"Point","coordinates":[-73.94112025542182,40.80299712174217]},"geometry_name":"geom","properties":{"id":"317002050H1486","name":"HENRY J. CARTER SPECIALTY HOSPITAL","address":"1752 Park Ave","zip":"10035","factype":3102,"facname":"Hospital","capacity":201,"capname":"Beds","bcode":"36061","xcoord":1000551,"ycoord":231836,"bbox":[-73.94112025542182,40.80299712174217,-73.94112025542182,40.80299712174217]}},{"type":"Feature","id":"nyu_2451_34494.32","geometry":{"type":"Point","coordinates":[-73.95272734121889,40.76510866647938]},"geometry_name":"geom","properties":{"id":"317002012H1447","name":"HOSPITAL FOR SPECIAL SURGERY","address":"535 E 70 St","zip":"10021","factype":3102,"facname":"Hospital","capacity":205,"capname":"Beds","bcode":"36061","xcoord":997345,"ycoord":218030,"bbox":[-73.95272734121889,40.76510866647938,-73.95272734121889,40.76510866647938]}},{"type":"Feature","id":"nyu_2451_34494.33","geometry":{"type":"Point","coordinates":[-74.00087325540062,40.73771480651277]},"geometry_name":"geom","properties":{"id":"317002017H9700","name":"LENOX HILL HEALTHPLEX","address":"30 Seventh Ave","zip":"10011","factype":3102,"facname":"Hospital","capacity":2,"capname":"Beds","bcode":"36061","xcoord":984008,"ycoord":208046,"bbox":[-74.00087325540062,40.73771480651277,-74.00087325540062,40.73771480651277]}},{"type":"Feature","id":"nyu_2451_34494.34","geometry":{"type":"Point","coordinates":[-73.96085559969245,40.77365334626773]},"geometry_name":"geom","properties":{"id":"317002017H1450","name":"LENOX HILL HOSPITAL","address":"100 E 77 St","zip":"10075","factype":3102,"facname":"Hospital","capacity":632,"capname":"Beds","bcode":"36061","xcoord":995092,"ycoord":221142,"bbox":[-73.96085559969245,40.77365334626773,-73.96085559969245,40.77365334626773]}},{"type":"Feature","id":"nyu_2451_34494.35","geometry":{"type":"Point","coordinates":[-73.95679987256894,40.7643746746314]},"geometry_name":"geom","properties":{"id":"317002020H1453","name":"MEMORIAL HOSPITAL FOR CANCER AND ALLIED DISEASES","address":"1275 York Ave","zip":"10065","factype":3102,"facname":"Hospital","capacity":514,"capname":"Beds","bcode":"36061","xcoord":996217,"ycoord":217762,"bbox":[-73.95679987256894,40.7643746746314,-73.95679987256894,40.7643746746314]}},{"type":"Feature","id":"nyu_2451_34494.36","geometry":{"type":"Point","coordinates":[-73.94496023523028,40.78505397397858]},"geometry_name":"geom","properties":{"id":"317002021H1454","name":"METROPOLITAN HOSPITAL CENTER","address":"1901 First Ave","zip":"10029","factype":3102,"facname":"Hospital","capacity":338,"capname":"Beds","bcode":"36061","xcoord":999492,"ycoord":225298,"bbox":[-73.94496023523028,40.78505397397858,-73.94496023523028,40.78505397397858]}},{"type":"Feature","id":"nyu_2451_34494.37","geometry":{"type":"Point","coordinates":[-73.98234480428712,40.733327340648806]},"geometry_name":"geom","properties":{"id":"317002002H1439","name":"MOUNT SINAI BETH ISRAEL","address":"10 Nathan D Perlman Pl","zip":"10003","factype":3102,"facname":"Hospital","capacity":856,"capname":"Beds","bcode":"36061","xcoord":989143,"ycoord":206448,"bbox":[-73.98234480428712,40.733327340648806,-73.98234480428712,40.733327340648806]}},{"type":"Feature","id":"nyu_2451_34494.38","geometry":{"type":"Point","coordinates":[-73.95326589972156,40.78987464729503]},"geometry_name":"geom","properties":{"id":"317002024H1456","name":"MOUNT SINAI HOSPITAL","address":"1 Gustave L Levy Pl","zip":"10029","factype":3102,"facname":"Hospital","capacity":1171,"capname":"Beds","bcode":"36061","xcoord":997191,"ycoord":227053,"bbox":[-73.95326589972156,40.78987464729503,-73.95326589972156,40.78987464729503]}},{"type":"Feature","id":"nyu_2451_34494.39","geometry":{"type":"Point","coordinates":[-73.98688765825308,40.76969584616549]},"geometry_name":"geom","properties":{"id":"317002032H1466","name":"MOUNT SINAI ROOSEVELT","address":"1000 Tenth Ave","zip":"10019","factype":3102,"facname":"Hospital","capacity":514,"capname":"Beds","bcode":"36061","xcoord":987882,"ycoord":219698,"bbox":[-73.98688765825308,40.76969584616549,-73.98688765825308,40.76969584616549]}},{"type":"Feature","id":"nyu_2451_34494.40","geometry":{"type":"Point","coordinates":[-73.96147972367365,40.80569555361149]},"geometry_name":"geom","properties":{"id":"317002032H1469","name":"MOUNT SINAI ST. LUKE'S","address":"1111 Amsterdam Ave","zip":"10025","factype":3102,"facname":"Hospital","capacity":478,"capname":"Beds","bcode":"36061","xcoord":994914,"ycoord":232816,"bbox":[-73.96147972367365,40.80569555361149,-73.96147972367365,40.80569555361149]}},{"type":"Feature","id":"nyu_2451_34494.41","geometry":{"type":"Point","coordinates":[-73.98461112231631,40.73188392497338]},"geometry_name":"geom","properties":{"id":"317002026H1460","name":"NEW YORK EYE AND EAR INFIRMARY OF MOUNT SINAI","address":"310 E 14 St","zip":"10003","factype":3102,"facname":"Hospital","capacity":69,"capname":"Beds","bcode":"36061","xcoord":988515,"ycoord":205922,"bbox":[-73.98461112231631,40.73188392497338,-73.98461112231631,40.73188392497338]}},{"type":"Feature","id":"nyu_2451_34494.42","geometry":{"type":"Point","coordinates":[-73.91294845848223,40.87322742159495]},"geometry_name":"geom","properties":{"id":"317002054H3975","name":"NEW YORK PRESBYTERIAN HOSPITAL - ALLEN HOSPITAL","address":"5141 Broadway","zip":"10034","factype":3102,"facname":"Hospital","capacity":201,"capname":"Beds","bcode":"36061","xcoord":1008325,"ycoord":257430,"bbox":[-73.91294845848223,40.87322742159495,-73.91294845848223,40.87322742159495]}},{"type":"Feature","id":"nyu_2451_34494.43","geometry":{"type":"Point","coordinates":[-73.94163622952348,40.84069608296931]},"geometry_name":"geom","properties":{"id":"317002054H1464","name":"NEW YORK PRESBYTERIAN HOSPITAL - COLUMBIA PRESBYTERIAN CENTER","address":"622 W 168 St","zip":"10032","factype":3102,"facname":"Hospital","capacity":995,"capname":"Beds","bcode":"36061","xcoord":1000399,"ycoord":245571,"bbox":[-73.94163622952348,40.84069608296931,-73.94163622952348,40.84069608296931]}},{"type":"Feature","id":"nyu_2451_34494.44","geometry":{"type":"Point","coordinates":[-73.9541429039059,40.764453245236794]},"geometry_name":"geom","properties":{"id":"317002054H1458","name":"NEW YORK PRESBYTERIAN HOSPITAL - NEW YORK WEILL CORNELL CENTER","address":"525 E 68 St","zip":"10065","factype":3102,"facname":"Hospital","capacity":862,"capname":"Beds","bcode":"36061","xcoord":996953,"ycoord":217791,"bbox":[-73.9541429039059,40.764453245236794,-73.9541429039059,40.764453245236794]}},{"type":"Feature","id":"nyu_2451_34494.45","geometry":{"type":"Point","coordinates":[-74.00501014024093,40.71035770183684]},"geometry_name":"geom","properties":{"id":"317002054H1437","name":"NEW YORK-PRESBYTERIAN/LOWER MANHATTAN HOSPITAL","address":"170 William St","zip":"10038","factype":3102,"facname":"Hospital","capacity":180,"capname":"Beds","bcode":"36061","xcoord":982861,"ycoord":198079,"bbox":[-74.00501014024093,40.71035770183684,-74.00501014024093,40.71035770183684]}},{"type":"Feature","id":"nyu_2451_34494.46","geometry":{"type":"Point","coordinates":[-73.98300123444984,40.73439514871629]},"geometry_name":"geom","properties":{"id":"317002053H1446","name":"NYU HOSPITAL FOR JOINT DISEASES","address":"301 E 17 St","zip":"10003","factype":3102,"facname":"Hospital","capacity":225,"capname":"Beds","bcode":"36061","xcoord":988961,"ycoord":206837,"bbox":[-73.98300123444984,40.73439514871629,-73.98300123444984,40.73439514871629]}},{"type":"Feature","id":"nyu_2451_34494.47","geometry":{"type":"Point","coordinates":[-73.97408207907505,40.742139177884226]},"geometry_name":"geom","properties":{"id":"317002053H1463","name":"NYU HOSPITALS CENTER","address":"550 First Ave","zip":"10016","factype":3102,"facname":"Hospital","capacity":844,"capname":"Beds","bcode":"36061","xcoord":991432,"ycoord":209659,"bbox":[-73.97408207907505,40.742139177884226,-73.97408207907505,40.742139177884226]}},{"type":"Feature","id":"nyu_2451_34494.48","geometry":{"type":"Point","coordinates":[-73.95573615593123,40.762546272252884]},"geometry_name":"geom","properties":{"id":"317002031H1465","name":"ROCKEFELLER UNIVERSITY HOSPITAL","address":"1230 York Ave","zip":"10065","factype":3102,"facname":"Hospital","capacity":40,"capname":"Beds","bcode":"36061","xcoord":996512,"ycoord":217096,"bbox":[-73.95573615593123,40.762546272252884,-73.95573615593123,40.762546272252884]}},{"type":"Feature","id":"nyu_2451_34494.49","geometry":{"type":"Point","coordinates":[-73.8856413174241,40.74512101423673]},"geometry_name":"geom","properties":{"id":"317003000H1626","name":"ELMHURST HOSPITAL CENTER","address":"79-01 Broadway","zip":"11373","factype":3102,"facname":"Hospital","capacity":545,"capname":"Beds","bcode":"36081","xcoord":1015938,"ycoord":210765,"bbox":[-73.8856413174241,40.74512101423673,-73.8856413174241,40.74512101423673]}},{"type":"Feature","id":"nyu_2451_34494.50","geometry":{"type":"Point","coordinates":[-73.81687376203055,40.7556132300575]},"geometry_name":"geom","properties":{"id":"317003001H1628","name":"FLUSHING HOSPITAL MEDICAL CENTER","address":"4500 Parsons Blvd","zip":"11355","factype":3102,"facname":"Hospital","capacity":299,"capname":"Beds","bcode":"36081","xcoord":1034985,"ycoord":214620,"bbox":[-73.81687376203055,40.7556132300575,-73.81687376203055,40.7556132300575]}},{"type":"Feature","id":"nyu_2451_34494.51","geometry":{"type":"Point","coordinates":[-73.85154781041423,40.72903352450221]},"geometry_name":"geom","properties":{"id":"317003013H1638","name":"FOREST HILLS HOSPITAL","address":"102-01 66 Rd","zip":"11375","factype":3102,"facname":"Hospital","capacity":312,"capname":"Beds","bcode":"36081","xcoord":1025395,"ycoord":204918,"bbox":[-73.85154781041423,40.72903352450221,-73.85154781041423,40.72903352450221]}},{"type":"Feature","id":"nyu_2451_34494.52","geometry":{"type":"Point","coordinates":[-73.81632908384933,40.70050577528414]},"geometry_name":"geom","properties":{"id":"317003003H1629","name":"JAMAICA HOSPITAL MEDICAL CENTER","address":"8900 Van Wyck Expy","zip":"11418","factype":3102,"facname":"Hospital","capacity":431,"capname":"Beds","bcode":"36081","xcoord":1035178,"ycoord":194543,"bbox":[-73.81632908384933,40.70050577528414,-73.81632908384933,40.70050577528414]}},{"type":"Feature","id":"nyu_2451_34494.53","geometry":{"type":"Point","coordinates":[-73.70931586733063,40.75292723318122]},"geometry_name":"geom","properties":{"id":"317003004H1630","name":"LONG ISLAND JEWISH MEDICAL CENTER","address":"270-05 76 Ave","zip":"11004","factype":3102,"facname":"Hospital","capacity":1025,"capname":"Beds","bcode":"36081","xcoord":1064787,"ycoord":213722,"bbox":[-73.70931586733063,40.75292723318122,-73.70931586733063,40.75292723318122]}},{"type":"Feature","id":"nyu_2451_34494.54","geometry":{"type":"Point","coordinates":[-73.92484415217665,40.76805542814498]},"geometry_name":"geom","properties":{"id":"317002024H1639","name":"MOUNT SINAI HOSPITAL - MOUNT SINAI HOSPITAL OF QUEENS","address":"25-10 30 Ave","zip":"11102","factype":3102,"facname":"Hospital","capacity":235,"capname":"Beds","bcode":"36081","xcoord":1005068,"ycoord":219109,"bbox":[-73.92484415217665,40.76805542814498,-73.92484415217665,40.76805542814498]}},{"type":"Feature","id":"nyu_2451_34494.55","geometry":{"type":"Point","coordinates":[-73.8251651922932,40.747180508981636]},"geometry_name":"geom","properties":{"id":"317003010H1637","name":"NEW YORK HOSPITAL MEDICAL CENTER OF QUEENS","address":"56-45 Main St","zip":"11355","factype":3102,"facname":"Hospital","capacity":535,"capname":"Beds","bcode":"36081","xcoord":1032694,"ycoord":211543,"bbox":[-73.8251651922932,40.747180508981636,-73.8251651922932,40.747180508981636]}},{"type":"Feature","id":"nyu_2451_34494.56","geometry":{"type":"Point","coordinates":[-73.80567939252273,40.717736421631656]},"geometry_name":"geom","properties":{"id":"317003007H1633","name":"QUEENS HOSPITAL CENTER","address":"82-68 164 St","zip":"11432","factype":3102,"facname":"Hospital","capacity":247,"capname":"Beds","bcode":"36081","xcoord":1038117,"ycoord":200827,"bbox":[-73.80567939252273,40.717736421631656,-73.80567939252273,40.717736421631656]}},{"type":"Feature","id":"nyu_2451_34494.57","geometry":{"type":"Point","coordinates":[-73.75348752144086,40.598655310582195]},"geometry_name":"geom","properties":{"id":"317001024H1635","name":"ST JOHNS EPISCOPAL HOSPITAL SO SHORE","address":"327 Beach 19 St","zip":"11691","factype":3102,"facname":"Hospital","capacity":257,"capname":"Beds","bcode":"36081","xcoord":1052707,"ycoord":157479,"bbox":[-73.75348752144086,40.598655310582195,-73.75348752144086,40.598655310582195]}},{"type":"Feature","id":"nyu_2451_34494.58","geometry":{"type":"Point","coordinates":[-74.10556032526767,40.635876540797966]},"geometry_name":"geom","properties":{"id":"317004010H1738","name":"RICHMOND UNIVERSITY MEDICAL CENTER","address":"355 Bard Ave","zip":"10310","factype":3102,"facname":"Hospital","capacity":448,"capname":"Beds","bcode":"36085","xcoord":954952,"ycoord":170961,"bbox":[-74.10556032526767,40.635876540797966,-74.10556032526767,40.635876540797966]}},{"type":"Feature","id":"nyu_2451_34494.59","geometry":{"type":"Point","coordinates":[-74.07561522684486,40.6225741757569]},"geometry_name":"geom","properties":{"id":"317004010H1473","name":"RUMC-BAYLEY SETON","address":"75 Vanderbilt Ave","zip":"10304","factype":3102,"facname":"Hospital","capacity":25,"capname":"Beds","bcode":"36085","xcoord":963259,"ycoord":166106,"bbox":[-74.07561522684486,40.6225741757569,-74.07561522684486,40.6225741757569]}},{"type":"Feature","id":"nyu_2451_34494.60","geometry":{"type":"Point","coordinates":[-74.09195676300884,40.602846400588724]},"geometry_name":"geom","properties":{"id":"317004003H1741","name":"STATEN ISLAND UNIV HOSP-CONCORD DIV","address":"1050 Targee St","zip":"10304","factype":3102,"facname":"Hospital","capacity":51,"capname":"Beds","bcode":"36085","xcoord":958715,"ycoord":158923,"bbox":[-74.09195676300884,40.602846400588724,-74.09195676300884,40.602846400588724]}},{"type":"Feature","id":"nyu_2451_34494.61","geometry":{"type":"Point","coordinates":[-74.08549793485295,40.584516120599574]},"geometry_name":"geom","properties":{"id":"317004003H1740","name":"STATEN ISLAND UNIVERSITY HOSP-NORTH","address":"475 Seaview Ave","zip":"10305","factype":3102,"facname":"Hospital","capacity":508,"capname":"Beds","bcode":"36085","xcoord":960502,"ycoord":152243,"bbox":[-74.08549793485295,40.584516120599574,-74.08549793485295,40.584516120599574]}},{"type":"Feature","id":"nyu_2451_34494.62","geometry":{"type":"Point","coordinates":[-74.19614316989768,40.51697880045174]},"geometry_name":"geom","properties":{"id":"317004003H1737","name":"STATEN ISLAND UNIVERSITY HOSP-SOUTH","address":"375 Seguine Ave","zip":"10309","factype":3102,"facname":"Hospital","capacity":206,"capname":"Beds","bcode":"36085","xcoord":929714,"ycoord":127687,"bbox":[-74.19614316989768,40.51697880045174,-74.19614316989768,40.51697880045174]}}],"crs":{"type":"name","properties":{"name":"urn:ogc:def:crs:EPSG::4326"}},"bbox":[-74.1961431698977,40.5169788004517,-73.7093158673306,40.8935177187633]}